{"resultsPage":{"results":{"location":[{"city":{"displayName":"Potters Bar","country":{"displayName":"UK"},"lng":-0.166667,"lat":51.6833},"metroArea":{"uri":"http:\/\/www.songkick.com\/metro_areas\/24426-uk-london?utm_source=4961&utm_medium=partner","displayName":"London","country":{"displayName":"UK"},"id":24426,"lng":-0.128,"lat":51.5078}},{"city":{"displayName":"Diamond Bar","country":{"displayName":"US"},"lng":-117.809,"lat":34.0286,"state":{"displayName":"CA"}},"metroArea":{"uri":"http:\/\/www.songkick.com\/metro_areas\/17835-us-los-angeles?utm_source=4961&utm_medium=partner","displayName":"Los Angeles","country":{"displayName":"US"},"id":17835,"lng":-118.376,"lat":34.0862,"state":{"displayName":"CA"}}},{"city":{"displayName":"Old Bar","country":{"displayName":"Australia"},"lng":null,"lat":null,"state":{"displayName":"NSW"}},"metroArea":{"uri":"http:\/\/www.songkick.com\/metro_areas\/26791-australia-newcastle?utm_source=4961&utm_medium=partner","displayName":"Newcastle","country":{"displayName":"Australia"},"id":26791,"lng":151.75,"lat":-32.9167,"state":{"displayName":"NSW"}}},{"city":{"displayName":"Bar Haven","country":{"displayName":"Canada"},"lng":null,"lat":null,"state":{"displayName":"NL"}},"metroArea":{"uri":"http:\/\/www.songkick.com\/metro_areas\/33223-canada-saint-johns?utm_source=4961&utm_medium=partner","displayName":"Saint John's","country":{"displayName":"Canada"},"id":33223,"lng":-52.6667,"lat":47.55,"state":{"displayName":"NL"}}},{"city":{"displayName":"Gold Bar","country":{"displayName":"Canada"},"lng":null,"lat":null,"state":{"displayName":"BC"}},"metroArea":{"uri":"http:\/\/www.songkick.com\/metro_areas\/27383-canada-prince-george?utm_source=4961&utm_medium=partner","displayName":"Prince George","country":{"displayName":"Canada"},"id":27383,"lng":-122.767,"lat":53.9167,"state":{"displayName":"BC"}}},{"city":{"displayName":"Bar Harbor","country":{"displayName":"US"},"lng":null,"lat":null,"state":{"displayName":"ME"}},"metroArea":{"uri":"http:\/\/www.songkick.com\/metro_areas\/78086-us-bar-harbor?utm_source=4961&utm_medium=partner","displayName":"Bar Harbor","country":{"displayName":"US"},"id":78086,"lng":null,"lat":null,"state":{"displayName":"ME"}}},{"city":{"displayName":"Marble Bar","country":{"displayName":"Australia"},"lng":null,"lat":null,"state":{"displayName":"WA"}},"metroArea":{"uri":"http:\/\/www.songkick.com\/metro_areas\/43434-australia-marble-bar?utm_source=4961&utm_medium=partner","displayName":"Marble Bar","country":{"displayName":"Australia"},"id":43434,"lng":null,"lat":null,"state":{"displayName":"WA"}}},{"city":{"displayName":"Jimble Bar Mining Centre","country":{"displayName":"Australia"},"lng":null,"lat":null,"state":{"displayName":"WA"}},"metroArea":{"uri":"http:\/\/www.songkick.com\/metro_areas\/42274-australia-jimble-bar-mining-centre?utm_source=4961&utm_medium=partner","displayName":"Jimble Bar Mining Centre","country":{"displayName":"Australia"},"id":42274,"lng":null,"lat":null,"state":{"displayName":"WA"}}}]},"totalEntries":8,"perPage":50,"page":1,"status":"ok"}}